[
    {
        "attId": "1",
          "name": "Flow House Bangkok",
          "type": "activity",
          "location": "Flow House Bangkok, A-Square Project, Sukhumvit 26 ",
          "province": "bangkok",
          "open_hours": "11:00 AM - 10:00 PM.",
          "phone": " 099 - 0838787",
          "parking": "",
          "website": "",
          "map_url": "",
          "image":""
      },
    {
        "attId": "2",
          "name": "Yunomori Onsen & Spa",
          "type": "activity",
          "location": " A Square, Sukhumvit 26, Bangkok  ",
          "province": "bangkok",
          "open_hours": "09.00 - 24.00 hrs. ",
          "phone": ":",
          "parking": "",
          "website": "https://www.facebook.com/YunomoriOnsen/",
          "map_url": "",
          "image":""
      },
    {
        "attId": "3",
          "name": "Combat Zone Srinakarin",
          "type": "activity",
          "location": " Soi Srinakarin 40, Srinakarin Road, Bangkok ",
          "province": "bangkok",
          "open_hours": "Weekdays 13.00 - 19.00, Saturday-Sunday and public holidays 10.00 - 20.00. ",
          "phone": "02 - 748 0238, 082 - 631 58883",
          "parking": "",
          "website": "",
          "map_url": "",
          "image":""
      },
      {
        "attId": "4",
        "name": "Patong Beach",
        "type": "activity",
        "location": "Patong Beach, Phuket",
        "province": "phuket",
        "description": "A 3-kilometer-long white sandy beach, perfect for swimming, sunbathing, and various water sports.",
        "open_hours": "Open 24 hours",
        "contact": "N/A",
        "website": "N/A",
        "map_url": "https://goo.gl/maps/abcd1234",
        "image": ""
      },
      {
        "attId": "5",
        "name": "Flying Hanuman",
        "type": "activity",
        "location": "89/16 Moo 6, Muang Chao Fa Road, Chalong, Phuket",
        "province": "phuket",
        "description": "A jungle zipline adventure park offering thrilling treetop activities.",
        "open_hours": "08:00 AM - 05:00 PM",
        "contact": "+66 76 540 767",
        "website": "https://www.flyinghanuman.com/",
        "map_url": "https://goo.gl/maps/efgh5678",
        "image": ""
      },
      {
        "attId": "6",
        "name": "Tarzan Adventure Phuket",
        "type": "activity",
        "location": "Chao Fa West Road, Chalong, Phuket",
        "province": "phuket",
        "description": "An outdoor adventure park featuring ziplining, rock climbing, and rope bridges.",
        "open_hours": "09:00 AM - 06:00 PM",
        "contact": "+66 76 367 000",
        "website": "https://www.tarzansadventure.com/",
        "map_url": "https://goo.gl/maps/ijkl9012",
        "image": ""
      },
      {
        "attId": "7",
        "name": "Mae Taeng River White Water Rafting",
        "type": "activity",
        "location": "Mae Taeng District, Chiang Mai",
        "province": "chiang mai",
        "description": "Experience thrilling white water rafting on the Mae Taeng River, navigating rapids ranging from class III to V amidst lush jungle scenery.",
        "open_hours": "Typically 8:00 AM - 5:00 PM; varies by tour operator",
        "contact": "+66 81 024 7046",
        "website": "https://8adventures.com/outdoor-activities-chiang-mai/",
        "map_url": "https://goo.gl/maps/xyz123",
        "image": ""
      },
      {
        "attId": "8",
        "name": "Doi Suthep-Pui National Park Hiking",
        "type": "activity",
        "location": "Huay Kaew Road, Chiang Mai",
        "province": "chiang mai",
        "description": "Hike through the scenic trails of Doi Suthep-Pui National Park, leading to the iconic Wat Phra That Doi Suthep temple with panoramic views of Chiang Mai.",
        "open_hours": "5:00 AM - 8:00 PM",
        "contact": "+66 53 210 244",
        "website": "https://www.thainationalparks.com/doi-suthep-pui-national-park",
        "map_url": "https://goo.gl/maps/abc456",
        "image": ""
      },
      {
        "attId": "9",
        "name": "Flight of the Gibbon Zipline Adventure",
        "type": "activity",
        "location": "Treetop Asia, 29/4-5 Kachasarn Rd, Chang Klan, Chiang Mai",
        "province": "chiang mai",
        "description": "Embark on a ziplining adventure through the rainforest canopy, featuring 33 platforms, sky bridges, and abseils, while learning about local wildlife.",
        "open_hours": "6:30 AM - 10:30 PM",
        "contact": "+66 53 010 660",
        "website": "https://www.treetopasia.com/chiang-mai-thailand-zipline/",
        "map_url": "https://goo.gl/maps/def789",
        "image": ""
      },
      {
        "attId": "10",
        "name": "Rock Climbing at Railay Beach",
        "type": "activity",
        "location": "Railay Beach, Krabi",
        "province": "krabi",
        "description": "Challenge yourself with world-class rock climbing on limestone cliffs overlooking the Andaman Sea at Railay Beach.",
        "open_hours": "8:00 AM - 6:00 PM",
        "contact": "+66 75 819 111",
        "website": "https://www.railayadventure.com/",
        "map_url": "https://goo.gl/maps/ghi012",
        "image": ""
      },
      {
        "attId": "11",
        "name": "Kayaking in Ao Thalane",
        "type": "activity",
        "location": "Ao Thalane, Krabi",
        "province": "krabi",
        "description": "Paddle through mangrove forests and towering karst formations in the serene waters of Ao Thalane.",
        "open_hours": "9:00 AM - 5:00 PM",
        "contact": "+66 75 682 161",
        "website": "https://www.krabi-spesialisten.com/tours/kayaking-ao-thalane/",
        "map_url": "https://goo.gl/maps/jkl345",
        "image": "https://www.krabi-spesialisten.com/wp-content/uploads/2018/05/kayaking-ao-thalane.jpg"
      },
      {
        "attId": "12",
        "name": "Phi Phi Islands Snorkeling Tour",
        "type": "activity",
        "location": "Phi Phi Islands, Krabi",
        "province": "krabi",
        "description": "Explore vibrant coral reefs and diverse marine life on a snorkeling tour around the stunning Phi Phi Islands.",
        "open_hours": "7:30 AM - 4:00 PM",
        "contact": "+66 75 637 730",
        "website": "https://www.phiphitours.com/",
        "map_url": "https://goo.gl/maps/mno678",
        "image": ""
      },
        {
          "attId": "13",
          "name": "Bang Saen Beach",
          "type": "activity",
          "location": "Bang Saen, Chonburi",
          "province": "chonburi",
          "description": "A popular destination for both locals and tourists, Bang Saen Beach offers swimming, sunbathing, and delicious seafood.",
          "open_hours": "Open 24 hours",
          "contact": "+66 38 193 500",
          "website": "https://www.bangsaenbeach.com/",
          "map_url": "https://goo.gl/maps/bangsaen",
          "image": ""
        },
        {
          "attId": "14",
          "name": "Khao Sam Muk",
          "type": "activity",
          "location": "Mueang Chonburi, Chonburi",
          "province": "chonburi",
          "description": "A scenic hilltop offering stunning views of the coastline and home to wild monkeys.",
          "open_hours": "6:00 AM - 7:00 PM",
          "contact": "+66 38 123 456",
          "website": "https://www.khaosammuk.com/",
          "map_url": "https://goo.gl/maps/khaosammuk",
          "image": ""
        },
        {
          "attId": "15",
          "name": "Ang Sila Old Market 133 Years",
          "type": "activity",
          "location": "Ang Sila, Chonburi",
          "province": "chonburi",
          "description": "A historic market offering traditional Thai culture, handicrafts, and authentic Thai cuisine.",
          "open_hours": "9:00 AM - 6:00 PM",
          "contact": "+66 38 987 654",
          "website": "https://www.angsilaoldmarket.com/",
          "map_url": "https://goo.gl/maps/angsila",
          "image": ""
        },
        {
          "attId": "16",
          "name": "Khao Sok National Park",
          "type": "activity",
          "location": "Khao Sok, Surat Thani",
          "province": "surat thani",
          "description": "A vast rainforest with limestone mountains, lakes, and diverse wildlife. Perfect for trekking and canoeing.",
          "open_hours": "6:00 AM - 6:00 PM",
          "contact": "+66 77 395 154",
          "website": "https://www.khaosok.com/",
          "map_url": "https://goo.gl/maps/khaosok",
          "image": ""
        },
        {
          "attId": "17",
          "name": "Ton Prai Waterfall",
          "type": "activity",
          "location": "Phanom District, Surat Thani",
          "province": "surat thani",
          "description": "A hidden gem in the jungle, offering a peaceful and refreshing atmosphere for nature lovers.",
          "open_hours": "7:00 AM - 5:00 PM",
          "contact": "+66 77 239 876",
          "website": "https://www.tonpraiwaterfall.com/",
          "map_url": "https://goo.gl/maps/tonprai",
          "image": ""
        },
        {
          "attId": "18",
          "name": "Wat Bang Riang",
          "type": "activity",
          "location": "Thap Put District, Surat Thani",
          "province": "surat thani",
          "description": "A temple complex situated on a hilltop with panoramic views and impressive architecture.",
          "open_hours": "8:00 AM - 5:00 PM",
          "contact": "+66 77 555 432",
          "website": "https://www.watbangriang.com/",
          "map_url": "https://goo.gl/maps/watbangriang",
          "image": ""
        },
        {
    "attId": "19",
    "name": "Doi Tung Royal Villa",
    "type": "activity",
    "location": "Doi Tung, Chiang Rai",
    "province": "chiang rai",
    "description": "A beautiful royal villa surrounded by lush gardens and breathtaking mountain views.",
    "open_hours": "7:00 AM - 5:30 PM",
    "contact": "+66 53 767 015",
    "website": "https://www.doitung.org/",
    "map_url": "https://goo.gl/maps/doitung",
    "image": ""
  },
  {
    "attId": "20",
    "name": "Wat Rong Khun (White Temple)",
    "type": "activity",
    "location": "Mueang Chiang Rai, Chiang Rai",
    "province": "chiang rai",
    "description": "A stunning white temple with intricate details and a unique modern Buddhist design.",
    "open_hours": "8:00 AM - 6:00 PM",
    "contact": "+66 53 673 579",
    "website": "https://www.watrongkhun.org/",
    "map_url": "https://goo.gl/maps/watrongkhun",
    "image": ""
  },
  {
    "attId": "21",
    "name": "Phu Chi Fa Viewpoint",
    "type": "activity",
    "location": "Chiang Rai",
    "province": "chiang rai",
    "description": "A breathtaking viewpoint where visitors can see the sea of mist and sunrise over the mountains.",
    "open_hours": "Open 24 hours",
    "contact": "",
    "website": "",
    "map_url": "https://goo.gl/maps/phuchifa",
    "image": ""
  },
  {
    "attId": "22",
    "name": "Ao Manao Beach",
    "type": "activity",
    "location": "Mueang Prachuap Khiri Khan, Prachuap Khiri Khan",
    "province": "prachuap khiri khan",
    "description": "A scenic and tranquil beach with crystal-clear water and soft sand, perfect for relaxation.",
    "open_hours": "Open 24 hours",
    "contact": "",
    "website": "",
    "map_url": "https://goo.gl/maps/aomanao",
    "image": ""
  },
  {
    "attId": "23",
    "name": "Khao Chong Krachok",
    "type": "activity",
    "location": "Mueang Prachuap Khiri Khan, Prachuap Khiri Khan",
    "province": "prachuap khiri khan",
    "description": "A hilltop temple offering stunning panoramic views and a climb with wild monkeys along the way.",
    "open_hours": "6:00 AM - 6:00 PM",
    "contact": "",
    "website": "",
    "map_url": "https://goo.gl/maps/khaochongkrachok",
    "image": ""
  },
  {
    "attId": "24",
    "name": "Similan Islands Snorkeling",
    "type": "activity",
    "location": "Similan Islands, Phang Nga",
    "province": "phangnga",
    "description": "Explore the crystal-clear waters and vibrant marine life of the Similan Islands, a top snorkeling destination in Thailand.",
    "open_hours": "7:00 AM - 5:00 PM",
    "contact": "+66 76 489 400",
    "website": "https://www.similanislandtours.com/",
    "map_url": "https://goo.gl/maps/similanislands",
    "image": ""
  },
  {
    "attId": "25",
    "name": "James Bond Island Tour",
    "type": "activity",
    "location": "Phang Nga Bay, Phang Nga",
    "province": "phangnga",
    "description": "Visit the famous James Bond Island, known for its stunning limestone cliffs and scenic beauty.",
    "open_hours": "8:00 AM - 6:00 PM",
    "contact": "+66 76 395 678",
    "website": "https://www.jamesbondisland.com/",
    "map_url": "https://goo.gl/maps/jamesbondisland",
    "image": ""
  },
  {
    "attId": "26",
    "name": "Surin Islands Diving",
    "type": "activity",
    "location": "Surin Islands, Phang Nga",
    "province": "phangnga",
    "description": "A premier diving spot with rich coral reefs and abundant sea life, ideal for underwater adventures.",
    "open_hours": "6:30 AM - 5:30 PM",
    "contact": "+66 76 258 321",
    "website": "https://www.surin-islands.com/",
    "map_url": "https://goo.gl/maps/surinislands",
    "image": ""
  },
  {
    "attId": "27",
    "name": "Khao Kho Viewpoint",
    "type": "activity",
    "location": "Khao Kho, Phetchabun",
    "province": "phetchabun",
    "description": "A picturesque viewpoint offering stunning panoramic views of the misty mountains in Khao Kho.",
    "open_hours": "Open 24 hours",
    "contact": "N/A",
    "website": "N/A",
    "map_url": "https://goo.gl/maps/khaokho",
    "image": ""
  },
  {
    "attId": "28",
    "name": "Phu Thap Boek",
    "type": "activity",
    "location": "Phu Thap Boek, Phetchabun",
    "province": "phetchabun",
    "description": "A high-altitude attraction known for its cool weather, sea of mist, and stunning mountain scenery.",
    "open_hours": "Open 24 hours",
    "contact": "N/A",
    "website": "N/A",
    "map_url": "https://goo.gl/maps/phuthapboek",
    "image": ""
  },
  {
    "attId": "29",
    "name": "Nam Nao National Park",
    "type": "activity",
    "location": "Nam Nao, Phetchabun",
    "province": "phetchabun",
    "description": "A lush national park with diverse wildlife, trekking trails, and stunning viewpoints.",
    "open_hours": "6:00 AM - 6:00 PM",
    "contact": "+66 56 731 004",
    "website": "https://www.namnao.go.th/",
    "map_url": "https://goo.gl/maps/namnaonationalpark",
    "image": ""
  },
  {
    "attId": "30",
    "name": "Khao San Road",
    "type": "street",
    "location": "Khao San Road, Bangkok",
    "province": "bangkok",
    "description": "A famous street known for its vibrant nightlife, street food, and backpacker culture.",
    "open_hours": "24/7",
    "contact": "+66 2 282 1208",
    "website": "https://www.khaosanroad.com/",
    "map_url": "https://goo.gl/maps/khaosanroad",
    "image": ""
  },
  {
    "attId": "31",
    "name": "Chatuchak Weekend Market",
    "type": "street",
    "location": "Chatuchak, Bangkok",
    "province": "bangkok",
    "description": "One of the largest markets in the world, offering a variety of goods from clothing to food and art.",
    "open_hours": "9:00 AM - 6:00 PM (Saturday & Sunday)",
    "contact": "+66 2 265 8320",
    "website": "http://www.chatuchak.org/",
    "map_url": "https://goo.gl/maps/chatuchakmarket",
    "image": ""
  },
  {
    "attId": "32",
    "name": "Asiatique The Riverfront",
    "type": "street",
    "location": "Chareonkrung Rd, Bangkok",
    "province": "bangkok",
    "description": "An open-air mall by the river featuring shopping, dining, and entertainment options.",
    "open_hours": "4:00 PM - 12:00 AM",
    "contact": "+66 2 108 4488",
    "website": "https://www.asiatiquethailand.com/",
    "map_url": "https://goo.gl/maps/asiatique",
    "image": ""
  },
  {
    "attId": "33",
    "name": "Patong Beach Walking Street",
    "type": "street",
    "location": "Patong Beach, Phuket",
    "province": "phuket",
    "description": "A bustling area with shops, restaurants, bars, and a lively nightlife scene.",
    "open_hours": "24/7",
    "contact": "+66 76 344 508",
    "website": "https://www.patongbeach.com/",
    "map_url": "https://goo.gl/maps/patongbeach",
    "image": ""
  },
  {
    "attId": "34",
    "name": "Phuket Old Town",
    "type": "street",
    "location": "Phuket Town, Phuket",
    "province": "phuket",
    "description": "A charming area with colorful Sino-Portuguese architecture, markets, and street food.",
    "open_hours": "8:00 AM - 8:00 PM",
    "contact": "+66 76 211 202",
    "website": "https://www.phuketoldtown.com/",
    "map_url": "https://goo.gl/maps/phuketoldtown",
    "image": ""
  },
  {
    "attId": "35",
    "name": "Sunday Walking Street Market (Lard Yai Market)",
    "type": "street",
    "location": "Phuket Old Town, Phuket",
    "province": "phuket",
    "description": "A popular market on Sundays in Phuket Old Town offering food, handicrafts, and local products.",
    "open_hours": "4:00 PM - 9:00 PM (Sundays)",
    "contact": "+66 76 211 360",
    "website": "https://www.phuket-sundaymarket.com/",
    "map_url": "https://goo.gl/maps/lardyaimarket",
    "image": ""
  },
  {
    "attId": "36",
    "name": "Chiang Mai Walking Street (Sunday Walking Street Market)",
    "type": "street",
    "location": "Ratchadamnoen Road, Chiang Mai",
    "province": "chiang mai",
    "description": "A popular walking street market in Chiang Mai, offering local handicrafts, street food, and performances.",
    "open_hours": "4:00 PM - 10:00 PM (Sundays)",
    "contact": "+66 53 276 543",
    "website": "https://www.chiangmaiwalk.com/",
    "map_url": "https://goo.gl/maps/chiangmaiwalkingstreet",
    "image": ""
  },
  {
    "attId": "37",
    "name": "Saturday Night Market (Wua Lai Walking Street)",
    "type": "street",
    "location": "Wua Lai Road, Chiang Mai",
    "province": "chiang mai",
    "description": "A vibrant street market held every Saturday, known for its traditional Lanna architecture, food, and crafts.",
    "open_hours": "4:00 PM - 10:00 PM (Saturdays)",
    "contact": "+66 53 302 200",
    "website": "https://www.saturdaynightmarket.com/",
    "map_url": "https://goo.gl/maps/saturdaymarketchiangmai",
    "image": ""
  },
  {
    "attId": "38",
    "name": "Tha Pae Walking Street",
    "type": "street",
    "location": "Tha Pae Road, Chiang Mai",
    "province": "chiang mai",
    "description": "A bustling street where visitors can enjoy local products, street performers, and traditional Thai foods.",
    "open_hours": "5:00 PM - 10:00 PM (Fridays and Saturdays)",
    "contact": "+66 53 271 765",
    "website": "https://www.thaepawalkingstreet.com/",
    "map_url": "https://goo.gl/maps/thapaewalkingstreet",
    "image": ""
  },
  {
    "attId": "39",
    "name": "Krabi Walking Street",
    "type": "street",
    "location": "Krabi Town, Krabi",
    "province": "krabi",
    "description": "A lively market with food, handicrafts, and live entertainment, popular with locals and tourists alike.",
    "open_hours": "5:00 PM - 10:00 PM (Fridays to Sundays)",
    "contact": "+66 75 612 135",
    "website": "https://www.krabiwalkingstreet.com/",
    "map_url": "https://goo.gl/maps/krabiwalkingstreet",
    "image": ""
  },
  {
    "attId": "40",
    "name": "Ao Nang Walking Street",
    "type": "street",
    "location": "Ao Nang, Krabi",
    "province": "krabi",
    "description": "A vibrant street market with shops, street food, and entertainment, located near the popular Ao Nang beach.",
    "open_hours": "5:00 PM - 11:00 PM (Daily)",
    "contact": "+66 75 637 144",
    "website": "https://www.aonangstreetmarket.com/",
    "map_url": "https://goo.gl/maps/aonangwalkingstreet",
    "image": ""
  },
  {
    "attId": "41",
    "name": "Krabi Town Night Market",
    "type": "street",
    "location": "Krabi Town, Krabi",
    "province": "krabi",
    "description": "A charming night market offering delicious local foods, handicrafts, and live music performances.",
    "open_hours": "5:00 PM - 10:00 PM (Weekends)",
    "contact": "+66 75 634 237",
    "website": "https://www.krabitownnightmarket.com/",
    "map_url": "https://goo.gl/maps/krabitownnightmarket",
    "image": ""
  },
  {
    "attId": "42",
    "name": "Pattaya Walking Street",
    "type": "street",
    "location": "Pattaya Beach Road, Chonburi",
    "province": "chonburi",
    "description": "A famous street known for its nightlife, bars, restaurants, and entertainment venues.",
    "open_hours": "6:00 PM - 3:00 AM (Daily)",
    "contact": "+66 38 427 574",
    "website": "https://www.pattayawalkingstreet.com/",
    "map_url": "https://goo.gl/maps/pattayawalkingstreet",
    "image": ""
  },
  {
    "attId": "43",
    "name": "Jomtien Beach Walking Street",
    "type": "street",
    "location": "Jomtien Beach, Chonburi",
    "province": "chonburi",
    "description": "A popular walking street with restaurants, shops, and beachside activities.",
    "open_hours": "4:00 PM - 10:00 PM (Daily)",
    "contact": "+66 38 251 162",
    "website": "https://www.jomtienbeachstreet.com/",
    "map_url": "https://goo.gl/maps/jomtienwalkingstreet",
    "image": ""
  },
  {
    "attId": "44",
    "name": "Sriracha Walking Street",
    "type": "street",
    "location": "Sriracha, Chonburi",
    "province": "chonburi",
    "description": "A bustling walking street offering local food, seafood, and unique shops.",
    "open_hours": "4:00 PM - 10:00 PM (Weekends)",
    "contact": "+66 38 321 278",
    "website": "https://www.srirachawalkingstreet.com/",
    "map_url": "https://goo.gl/maps/srirachawalkingstreet",
    "image": ""
  },
  {
    "attId": "45",
    "name": "Surat Thani Walking Street",
    "type": "street",
    "location": "Surat Thani Town, Surat Thani",
    "province": "surat thani",
    "description": "A lively walking street offering local food, handicrafts, and entertainment.",
    "open_hours": "5:00 PM - 10:00 PM (Saturdays and Sundays)",
    "contact": "+66 77 283 800",
    "website": "https://www.surattaniwalkingstreet.com/",
    "map_url": "https://goo.gl/maps/suratthaniwalkingstreet",
    "image": ""
  },
  {
    "attId": "46",
    "name": "Chaiya Walking Street",
    "type": "street",
    "location": "Chaiya, Surat Thani",
    "province": "surat thani",
    "description": "A traditional market known for local food and handmade crafts.",
    "open_hours": "5:00 PM - 9:00 PM (Saturdays)",
    "contact": "+66 77 316 212",
    "website": "https://www.chaiyawalkingstreet.com/",
    "map_url": "https://goo.gl/maps/chaiyawalkingstreet",
    "image": ""
  },
  {
    "attId": "47",
    "name": "Tha Chang Walking Street",
    "type": "street",
    "location": "Tha Chang, Surat Thani",
    "province": "surat thani",
    "description": "A vibrant street market with food stalls, local crafts, and entertainment.",
    "open_hours": "4:00 PM - 9:00 PM (Fridays and Saturdays)",
    "contact": "+66 77 271 540",
    "website": "https://www.thachangstreetmarket.com/",
    "map_url": "https://goo.gl/maps/thachangwalkingstreet",
    "image": ""
  },
  {
    "attId": "48",
    "name": "Chiang Rai Walking Street",
    "type": "street",
    "location": "Chiang Rai City, Chiang Rai",
    "province": "chiang rai",
    "description": "A lively walking street market with local products, food, and cultural performances.",
    "open_hours": "5:00 PM - 10:00 PM (Saturdays)",
    "contact": "+66 53 718 221",
    "website": "https://www.chiangraiwalkingstreet.com/",
    "map_url": "https://goo.gl/maps/chiangraiwalkingstreet",
    "image": ""
  },
  {
    "attId": "49",
    "name": "Saturday Walking Street Market",
    "type": "street",
    "location": "Downtown Chiang Rai, Chiang Rai",
    "province": "chiang rai",
    "description": "A weekly market offering arts, crafts, local food, and souvenirs.",
    "open_hours": "5:00 PM - 10:00 PM (Saturdays)",
    "contact": "+66 53 727 323",
    "website": "https://www.saturdaywalkingstreetchiangrai.com/",
    "map_url": "https://goo.gl/maps/saturdaystreetchiangrai",
    "image": ""
  },
  {
    "attId": "50",
    "name": "Phahonyothin Walking Street",
    "type": "street",
    "location": "Phahonyothin Road, Chiang Rai",
    "province": "chiang rai",
    "description": "A street market offering local food and cultural performances every weekend.",
    "open_hours": "4:00 PM - 9:00 PM (Fridays and Saturdays)",
    "contact": "+66 53 749 930",
    "website": "https://www.phahonyothinstreetmarket.com/",
    "map_url": "https://goo.gl/maps/phahonyothinwalkingstreet",
    "image": ""
  },
  {
    "attId": "51",
    "name": "Prachuap Khiri Khan Walking Street",
    "type": "street",
    "location": "Prachuap Khiri Khan Town, Prachuap Khiri Khan",
    "province": "prachuap khiri khan",
    "description": "A beautiful walking street offering seafood, local delicacies, and handicrafts.",
    "open_hours": "5:00 PM - 10:00 PM (Fridays and Saturdays)",
    "contact": "+66 32 513 001",
    "website": "https://www.prachuapkhiriwalkingstreet.com/",
    "map_url": "https://goo.gl/maps/prachuapkhiriwalkingstreet",
    "image": ""
  },
  {
    "attId": "52",
    "name": "Hua Hin Walking Street",
    "type": "street",
    "location": "Hua Hin, Prachuap Khiri Khan",
    "province": "prachuap khiri khan",
    "description": "A popular market by the beach offering seafood, arts, and crafts.",
    "open_hours": "5:00 PM - 10:00 PM (Fridays to Sundays)",
    "contact": "+66 32 511 140",
    "website": "https://www.huahinwalkingstreet.com/",
    "map_url": "https://goo.gl/maps/huahinwalkingstreet",
    "image": ""
  },
  {
    "attId": "53",
    "name": "Bang Saphan Walking Street",
    "type": "street",
    "location": "Bang Saphan, Prachuap Khiri Khan",
    "province": "prachuap khiri khan",
    "description": "A small but charming walking street known for its seafood and local crafts.",
    "open_hours": "5:00 PM - 9:00 PM (Fridays and Saturdays)",
    "contact": "+66 32 684 286",
    "website": "https://www.bangsaphanwalkingstreet.com/",
    "map_url": "https://goo.gl/maps/bangsaphanwalkingstreet",
    "image": ""
  },
  {
    "attId": "54",
    "name": "Phang Nga Walking Street",
    "type": "street",
    "location": "Phang Nga Town, Phang Nga",
    "province": "phangnga",
    "description": "A popular street market offering local food, crafts, and cultural experiences.",
    "open_hours": "5:00 PM - 10:00 PM (Saturdays)",
    "contact": "+66 76 481 298",
    "website": "https://www.phangngawalkingstreet.com/",
    "map_url": "https://goo.gl/maps/phangngawalkingstreet",
    "image": ""
  },
  {
    "attId": "55",
    "name": "Koh Panyi Walking Street",
    "type": "street",
    "location": "Koh Panyi, Phang Nga",
    "province": "phangnga",
    "description": "A walking street in the famous fishing village, offering fresh seafood and local handicrafts.",
    "open_hours": "9:00 AM - 6:00 PM (Daily)",
    "contact": "+66 76 473 286",
    "website": "https://www.kohpanyiwalkingstreet.com/",
    "map_url": "https://goo.gl/maps/kohpanyiwalkingstreet",
    "image": ""
  },
  {
    "attId": "56",
    "name": "Takuapa Walking Street",
    "type": "street",
    "location": "Takuapa, Phang Nga",
    "province": "phangnga",
    "description": "A charming walking street offering local food, crafts, and cultural experiences.",
    "open_hours": "5:00 PM - 9:00 PM (Fridays and Saturdays)",
    "contact": "+66 76 486 221",
    "website": "https://www.takuapawalkingstreet.com/",
    "map_url": "https://goo.gl/maps/takuapawalkingstreet",
    "image": ""
  },
  {
    "attId": "57",
    "name": "Nam Nao National Park",
    "type": "street",
    "location": "Nam Nao, Phetchabun",
    "province": "phetchabun",
    "description": "A lush national park with diverse wildlife, trekking trails, and stunning viewpoints.",
    "open_hours": "6:00 AM - 6:00 PM",
    "contact": "+66 56 731 004",
    "website": "https://www.namnao.go.th/",
    "map_url": "https://goo.gl/maps/namnaonationalpark",
    "image": ""
  },
    {
      "attId": "58",
      "name": "Siam Paragon",
      "type": "mall",
      "location": "Rama 1 Road, Pathumwan, Bangkok",
      "province": "bangkok",
      "description": "A large shopping mall with luxury brands, entertainment, and dining options.",
      "open_hours": "10:00 AM - 10:00 PM",
      "contact": "+66 2 610 8000",
      "website": "https://www.siamparagon.co.th/",
      "map_url": "https://goo.gl/maps/siamparagon",
      "image": ""
    },
    {
      "attId": "59",
      "name": "CentralWorld",
      "type": "mall",
      "location": "Ratchadamri Road, Pathumwan, Bangkok",
      "province": "bangkok",
      "description": "One of the largest shopping malls in Bangkok, offering a mix of high-end brands, eateries, and entertainment.",
      "open_hours": "10:00 AM - 10:00 PM",
      "contact": "+66 2 646 1888",
      "website": "https://www.centralworld.co.th/",
      "map_url": "https://goo.gl/maps/centralworld",
      "image": ""
    },
    {
      "attId": "60",
      "name": "MBK Center",
      "type": "mall",
      "location": "Phaya Thai Road, Bangkok",
      "province": "bangkok",
      "description": "A popular mall for electronics, clothing, and affordable products.",
      "open_hours": "10:00 AM - 10:00 PM",
      "contact": "+66 2 620 9000",
      "website": "https://www.mbk-center.co.th/",
      "map_url": "https://goo.gl/maps/mbkcenter",
      "image": ""
    },
    {
      "attId": "61",
      "name": "Jungceylon Shopping Mall",
      "type": "mall",
      "location": "Patong Beach, Phuket",
      "province": "phuket",
      "description": "A large shopping mall in Patong with international brands, restaurants, and entertainment.",
      "open_hours": "11:00 AM - 11:00 PM",
      "contact": "+66 76 600 111",
      "website": "https://www.jungceylon.com/",
      "map_url": "https://goo.gl/maps/jungceylon",
      "image": ""
    },
    {
      "attId": "62",
      "name": "Central Phuket",
      "type": "mall",
      "location": "Chao Fah East Road, Phuket Town",
      "province": "phuket",
      "description": "A modern shopping mall with a wide range of local and international brands.",
      "open_hours": "10:00 AM - 10:00 PM",
      "contact": "+66 76 249 988",
      "website": "https://www.centralphuket.com/",
      "map_url": "https://goo.gl/maps/centralphuket",
      "image": ""
    },
    {
      "attId": "63",
      "name": "Phuket Weekend Market (Naka Market)",
      "type": "mall",
      "location": "Chao Fa West Road, Phuket",
      "province": "phuket",
      "description": "A popular market with local goods, food, clothing, and souvenirs.",
      "open_hours": "4:00 PM - 10:00 PM (Saturdays and Sundays)",
      "contact": "+66 76 216 599",
      "website": "https://www.phuketmarket.com/",
      "map_url": "https://goo.gl/maps/phuketmarket",
      "image": ""
    },
    {
      "attId": "64",
      "name": "Central Festival Chiang Mai",
      "type": "mall",
      "location": "Chonprathan Road, Hang Dong, Chiang Mai",
      "province": "chiang mai",
      "description": "A major shopping mall with a variety of international brands and local shops.",
      "open_hours": "10:00 AM - 10:00 PM",
      "contact": "+66 53 999 777",
      "website": "https://www.centralfestivalchiangmai.com/",
      "map_url": "https://goo.gl/maps/centralfestivalchiangmai",
      "image": ""
    },
    {
      "attId": "65",
      "name": "Maya Lifestyle Shopping Center",
      "type": "mall",
      "location": "Nimmanhaemin Road, Chiang Mai",
      "province": "chiang mai",
      "description": "A trendy shopping mall popular with locals and tourists for dining, shopping, and entertainment.",
      "open_hours": "10:00 AM - 10:00 PM",
      "contact": "+66 53 283 333",
      "website": "https://www.maya-shopping.com/",
      "map_url": "https://goo.gl/maps/mayalifestyleshoppingcenter",
      "image": ""
    },
    {
      "attId": "66",
      "name": "Sunday Walking Street Market (Chiang Mai)",
      "type": "mall",
      "location": "Ratchadamnoen Road, Chiang Mai",
      "province": "chiang mai",
      "description": "A famous walking street offering local crafts, food, and performances.",
      "open_hours": "4:00 PM - 10:00 PM (Sundays)",
      "contact": "+66 53 276 543",
      "website": "https://www.chiangmaiwalk.com/",
      "map_url": "https://goo.gl/maps/chiangmaiwalkingstreet",
      "image": ""
    },
    {
      "attId": "67",
      "name": "Krabi Town Walking Street",
      "type": "mall",
      "location": "Krabi Town, Krabi",
      "province": "krabi",
      "description": "A vibrant market offering food, local products, and cultural experiences.",
      "open_hours": "5:00 PM - 10:00 PM (Fridays to Sundays)",
      "contact": "+66 75 612 135",
      "website": "https://www.krabiwalkingstreet.com/",
      "map_url": "https://goo.gl/maps/krabiwalkingstreet",
      "image": ""
    },
    {
      "attId": "68",
      "name": "Ao Nang Walking Street",
      "type": "mall",
      "location": "Ao Nang, Krabi",
      "province": "krabi",
      "description": "A popular walking street in Ao Nang with shops, restaurants, and street food.",
      "open_hours": "5:00 PM - 10:00 PM (Daily)",
      "contact": "+66 75 637 144",
      "website": "https://www.aonangstreetmarket.com/",
      "map_url": "https://goo.gl/maps/aonangwalkingstreet",
      "image": ""
    },
    {
      "attId": "69",
      "name": "Krabi Walking Street Market",
      "type": "mall",
      "location": "Krabi Town, Krabi",
      "province": "krabi",
      "description": "A lively market in Krabi Town with food, crafts, and live performances.",
      "open_hours": "5:00 PM - 10:00 PM (Weekends)",
      "contact": "+66 75 634 237",
      "website": "https://www.krabitownnightmarket.com/",
      "map_url": "https://goo.gl/maps/krabitownnightmarket",
      "image": ""
    },
    {
        "attId": "70",
        "name": "Central Festival Pattaya Beach",
        "type": "mall",
        "location": "Pattaya, Chonburi",
        "province": "chonburi",
        "description": "A large mall with a wide range of shops, restaurants, and entertainment options.",
        "open_hours": "10:00 AM - 10:00 PM",
        "contact": "+66 38 043 800",
        "website": "https://www.centralfestivalpattaya.com/",
        "map_url": "https://goo.gl/maps/centralfestivalpattaya",
        "image": ""
      },
      {
        "attId": "71",
        "name": "Royal Garden Plaza Pattaya",
        "type": "mall",
        "location": "Pattaya, Chonburi",
        "province": "chonburi",
        "description": "A shopping mall in Pattaya offering international brands, restaurants, and entertainment.",
        "open_hours": "10:00 AM - 10:00 PM",
        "contact": "+66 38 710 388",
        "website": "https://www.royalgardenplaza.com/",
        "map_url": "https://goo.gl/maps/royalgardenplaza",
        "image": ""
      },
      {
        "attId": "72",
        "name": "Terminal 21 Pattaya",
        "type": "mall",
        "location": "Pattaya, Chonburi",
        "province": "chonburi",
        "description": "A modern mall with international and local shops, restaurants, and a cinema.",
        "open_hours": "10:00 AM - 10:00 PM",
        "contact": "+66 38 340 999",
        "website": "https://www.terminal21pattaya.com/",
        "map_url": "https://goo.gl/maps/terminal21pattaya",
        "image": ""
      },
      {
        "attId": "73",
        "name": "CentralPlaza Surat Thani",
        "type": "mall",
        "location": "Surat Thani, Surat Thani",
        "province": "surat thani",
        "description": "A large shopping mall in Surat Thani with local and international stores, dining, and entertainment.",
        "open_hours": "10:00 AM - 10:00 PM",
        "contact": "+66 77 205 520",
        "website": "https://www.centralplazasuratthani.com/",
        "map_url": "https://goo.gl/maps/centralplazasuratthani",
        "image": ""
      },
      {
        "attId": "74",
        "name": "Big C Surat Thani",
        "type": "mall",
        "location": "Surat Thani, Surat Thani",
        "province": "surat thani",
        "description": "A large retail mall offering groceries, electronics, and other essentials.",
        "open_hours": "9:00 AM - 10:00 PM",
        "contact": "+66 77 288 654",
        "website": "https://www.bigc.co.th/",
        "map_url": "https://goo.gl/maps/bigcsuratthani",
        "image": ""
      },
      {
        "attId": "75",
        "name": "Surat Thani Night Market",
        "type": "mall",
        "location": "Surat Thani, Surat Thani",
        "province": "surat thani",
        "description": "A vibrant night market offering food, clothing, and souvenirs.",
        "open_hours": "5:00 PM - 10:00 PM",
        "contact": "+66 77 282 706",
        "website": "https://www.suratthaninightmarket.com/",
        "map_url": "https://goo.gl/maps/suratthaninightmarket",
        "image": ""
      },
      {
        "attId": "76",
        "name": "Central Plaza Chiang Rai",
        "type": "mall",
        "location": "Chiang Rai, Chiang Rai",
        "province": "chiang rai",
        "description": "A modern shopping center with various international brands, food, and entertainment.",
        "open_hours": "10:00 AM - 10:00 PM",
        "contact": "+66 53 743 977",
        "website": "https://www.centralplazachiangrai.com/",
        "map_url": "https://goo.gl/maps/centralplazachiangrai",
        "image": ""
      },
      {
        "attId": "77",
        "name": "Chiang Rai Walking Street",
        "type": "mall",
        "location": "Chiang Rai, Chiang Rai",
        "province": "chiang rai",
        "description": "A popular walking street offering local crafts, food, and souvenirs.",
        "open_hours": "5:00 PM - 10:00 PM (Saturdays)",
        "contact": "+66 53 718 221",
        "website": "https://www.chiangraiwalkingstreet.com/",
        "map_url": "https://goo.gl/maps/chiangraiwalkingstreet",
        "image": ""
      },{
        "attId": "78",
        "name": "Vana Nava Water Jungle",
        "type": "mall",
        "location": "Hua Hin, Prachuap Khiri Khan",
        "province": "prachuap khiri khan",
        "description": "A large water park offering a variety of slides, rides, and attractions for families.",
        "open_hours": "10:00 AM - 6:00 PM",
        "contact": "+66 32 909 605",
        "website": "https://www.vananava.com/",
        "map_url": "https://goo.gl/maps/vananava",
        "image": ""
      },
      {
        "attId": "79",
        "name": "Hua Hin Night Market",
        "type": "mall",
        "location": "Hua Hin, Prachuap Khiri Khan",
        "province": "prachuap Khiri Khan",
        "description": "A vibrant market offering local goods, food, and souvenirs in the heart of Hua Hin.",
        "open_hours": "6:00 PM - 10:00 PM",
        "contact": "+66 32 512 883",
        "website": "https://www.huahinnightmarket.com/",
        "map_url": "https://goo.gl/maps/huahinnightmarket",
        "image": ""
      },
      {
        "attId": "80",
        "name": "Cicada Market",
        "type": "mall",
        "location": "Hua Hin, Prachuap Khiri Khan",
        "province": "prachuap khiri khan",
        "description": "An artsy and lively market selling handmade crafts, food, and live performances.",
        "open_hours": "4:00 PM - 10:00 PM (Weekends)",
        "contact": "+66 32 538 868",
        "website": "https://www.cicadamarket.com/",
        "map_url": "https://goo.gl/maps/cicadamarket",
        "image": ""
      },
      {
        "attId": "81",
        "name": "Phang Nga Walking Street",
        "type": "mall",
        "location": "Phang Nga, Phang Nga",
        "province": "phangnga",
        "description": "A bustling walking street offering local food, crafts, and entertainment.",
        "open_hours": "4:00 PM - 9:00 PM (Saturdays and Sundays)",
        "contact": "+66 76 510 203",
        "website": "https://www.phangngawalkingstreet.com/",
        "map_url": "https://goo.gl/maps/phangngawalkingstreet",
        "image": ""
      },
      {
        "attId": "82",
        "name": "Bang Niang Market",
        "type": "mall",
        "location": "Khao Lak, Phang Nga",
        "province": "phangnga",
        "description": "A popular market in Khao Lak with local products, food, and souvenirs.",
        "open_hours": "12:00 PM - 10:00 PM",
        "contact": "+66 76 485 467",
        "website": "https://www.bangniangmarket.com/",
        "map_url": "https://goo.gl/maps/bangniangmarket",
        "image": ""
      },
      {
        "attId": "83",
        "name": "Khao Lak Shopping Center",
        "type": "mall",
        "location": "Khao Lak, Phang Nga",
        "province": "phangnga",
        "description": "A small shopping center in Khao Lak offering retail shops, food, and souvenirs.",
        "open_hours": "9:00 AM - 9:00 PM",
        "contact": "+66 76 485 500",
        "website": "https://www.khaolakshoppingcenter.com/",
        "map_url": "https://goo.gl/maps/khaolakshoppingcenter",
        "image": ""
      },
      {
        "attId": "84",
        "name": "Central Plaza Phetchabun",
        "type": "mall",
        "location": "Phetchabun, Phetchabun",
        "province": "phetchabun",
        "description": "A large shopping mall with a variety of retail shops, dining, and entertainment.",
        "open_hours": "10:00 AM - 10:00 PM",
        "contact": "+66 56 789 123",
        "website": "https://www.centralplazaphetchabun.com/",
        "map_url": "https://goo.gl/maps/centralplazaphetchabun",
        "image": ""
      },
      {
        "attId": "85",
        "name": "Phetchabun Night Market",
        "type": "mall",
        "location": "Phetchabun, Phetchabun",
        "province": "phetchabun",
        "description": "A bustling night market offering food, clothing, and local crafts.",
        "open_hours": "5:00 PM - 10:00 PM",
        "contact": "+66 56 782 300",
        "website": "https://www.phetchabunnightmarket.com/",
        "map_url": "https://goo.gl/maps/phetchabunnightmarket",
        "image": ""
      },
      {
        "attId": "86",
        "name": "Phu Tub Berk Market",
        "type": "mall",
        "location": "Phetchabun, Phetchabun",
        "province": "phetchabun",
        "description": "A popular market in the mountains, offering local food, crafts, and souvenirs.",
        "open_hours": "7:00 AM - 5:00 PM",
        "contact": "+66 56 751 777",
        "website": "https://www.phutuberkmarket.com/",
        "map_url": "https://goo.gl/maps/phutuberkmarket",
        "image": ""
      }
]