[
  {
    "foodId": "1",
    "name": "Krua Apsorn",
    "type": "localthai",
    "location": "Ratchaphruek Road, Bangwaek Subdistrict, Phasi Charoen District, Bangkok",
    "province": "bangkok",
    "open_hours": "10:30 AM - 9:00 PM (Closed on Mondays)",
    "phone": "09-4017-5725",
    "parking": "Available",
    "website": "https://www.facebook.com/kruaapsorn.ratchapruek",
    "map_url": "https://g.page/kruaapsorn-ratchapruek",
    "image": "https://res.cloudinary.com/dvfwhgpen/image/upload/v1744134526/food/1.jpg"
  },
  {
    "foodId": "2",
    "name": "Supanniga Eating Room",
    "type": "localthai",
    "location": "So Phenn Phat 2, Maharaj Road, Phra Nakhon District, Bangkok",
    "province": "bangkok",
    "open_hours": "11:00 AM - 9:30 PM",
    "phone": "0-2015-4224",
    "parking": "None (Parking available at Wat Pho)",
    "website": "https://www.facebook.com/supannigaeatingroomthatien",
    "map_url": "https://g.page/supannigaeatingroomthatien",
    "image": "https://res.cloudinary.com/dvfwhgpen/image/upload/v1744134545/food/2.jpg"
  },
  {
    "foodId": "3",
    "name": "Mee Ton Poe",
    "type": "localthai",
    "location": "214/7-8 Phuket Road, Talad Yai, Mueang Phuket District, Phuket",
    "province": "phuket",
    "open_hours": "9:00 AM - 6:30 PM",
    "phone": "Not Available",
    "parking": "Available",
    "website": "https://www.facebook.com/MeeTonPoePhuket",
    "map_url": "https://maps.app.goo.gl/SiZipkaMS4XSKiTP9",
    "image": "https://res.cloudinary.com/dvfwhgpen/image/upload/v1744134934/food/3.webp"
  },
  {
    "foodId": "4",
    "name": "Nam Yoi shop",
    "type": "localthai",
    "location": "69 Phang Nga Road, Talad Yai Subdistrict, Mueang Phuket District, Phuket",
    "province": "phuket",
    "open_hours": "10.00 - 19.00 hrs. (Closed every Wednesday)",
    "phone": "Not Available",
    "parking": "Available",
    "website": "https://www.facebook.com/MeeTonPoePhuket",
    "map_url": "https://maps.app.goo.gl/wddZeynZn9pUkh3A8",
    "image": "https://res.cloudinary.com/dvfwhgpen/image/upload/v1744134587/food/4.webp"
  },
  {
    "foodId": "5",
    "name": "Khao Soi Khun Yai",
    "type": "localthai",
    "location": "Sri Poom 8 Alley, Tambon Si Phum, Mueang Chiang Mai District, Chiang Mai 50200, Thailand",
    "province": "chiang mai",
    "open_hours": "Monday–Saturday from 10 am to 2 pm (closed on Sundays)",
    "phone": "Not Available",
    "parking": "Available",
    "website": "",
    "map_url": "",
    "image": "https://res.cloudinary.com/dvfwhgpen/image/upload/v1744134604/food/5.jpg"
  },
  {
    "foodId": "6",
    "name": "Ginger Farm Kitchen",
    "type": "localthai",
    "location": "One Nimman Nimmanahaeminda Road, Suthep, Mueang Chiang Mai District, Chiang Mai 50200, Thailand",
    "province": "chiang mai",
    "open_hours": "Tuesday–Sunday from 11 am to 9 pm, Monday from 11 am to 8 pm",
    "phone": "+66 (0)52 080 928",
    "parking": "Available",
    "website": "",
    "map_url": "",
    "image": "https://res.cloudinary.com/dvfwhgpen/image/upload/v1744134620/food/6.jpg"
  },
  {
    "foodId": "7",
    "name": "Chao Fah Pier",
    "type": "localthai",
    "location": "Chao Fah Pier on Kong Ka Road, Krabi Town",
    "province": "krabi",
    "open_hours": "5:00 AM -12:30 PM",
    "phone": "",
    "parking": "Available",
    "website": "",
    "map_url": "",
    "image": "https://res.cloudinary.com/dvfwhgpen/image/upload/v1744134634/food/7.jpg"
  },
  {
    "foodId": "8",
    "name": "Local Thai Food Restaurant",
    "type": "localthai",
    "location": "Ao Nang, Mueang Krabi District, Krabi ",
    "province": "krabi",
    "open_hours": "0:00 AM – 10:00 AM",
    "phone": "",
    "parking": "Available",
    "website": "",
    "map_url": "",
    "image": "https://res.cloudinary.com/dvfwhgpen/image/upload/v1744134650/food/8.jpg"
  },
  {
    "foodId": "9",
    "name": "Loong Riang Pa Malee",
    "type": "localthai",
    "location": "Mouth of Soi Takhian Tia 37, Takhian Tia, Bang Lamung District, Chon Buri 20150, Thailand ",
    "province": "chon buri",
    "open_hours": "8:00 AM–2:30 AM (Saturday: Closed)",
    "phone": "+66 81 290 8490",
    "parking": "Available",
    "website": "",
    "map_url": "https://www.google.com/maps?ftid=0x3102bf5acb07dd9b:0xc863338b3f5668a6",
    "image": "https://res.cloudinary.com/dvfwhgpen/image/upload/v1744134653/food/9.jpg"
  },
  {
    "foodId": "10",
    "name": "Dang Dum Pattaya Restaurant",
    "type": "localthai",
    "location": "460/9 5, Pattaya 7 Alley, Muang Pattaya, Bang Lamung District, Chon Buri 20150, Thailand",
    "province": "chon buri",
    "open_hours": "6:00 AM–10:00 PM",
    "phone": "+66 86 321 8837",
    "parking": "Available",
    "website": "https://www.facebook.com/share/CcYKpcrdoqjNs3Uc/",
    "map_url": "https://www.google.com/maps?ftid=0x310295fd6af53a4d:0x6811111d5401e8bd",
    "image": "https://res.cloudinary.com/dvfwhgpen/image/upload/v1744134528/food/10.jpg"
  },
  {
    "foodId": "11",
    "name": "Lam Phu 2",
    "type": "localthai",
    "location": "23/1 Mu 3, Pak Nam Road, Bang Kung, Mueang Surat Thani, Surat Thani, 84000, Thailand",
    "province": "surat thani",
    "open_hours": "10:00 AM–21:00 PM",
    "phone": "+66 77 285 113",
    "parking": "Car park",
    "website": "",
    "map_url": "",
    "image": "https://res.cloudinary.com/dvfwhgpen/image/upload/v1744134529/food/11.webp"
  },
  {
    "foodId": "12",
    "name": "Phunisa",
    "type": "localthai",
    "location": "11/1 Mu 1, Khao Hua Khwai, Phunphin, Surat Thani, 84130, Thailand",
    "province": "surat thani",
    "open_hours": "",
    "phone": "+66 80 520 6111",
    "parking": "Car park",
    "website": "",
    "map_url": "",
    "image": "https://res.cloudinary.com/dvfwhgpen/image/upload/v1744134530/food/12.webp"
  },
  {
    "foodId": "13",
    "name": "Tong Tung Restaurant",
    "type": "localthai",
    "location": "1, Sanambin Rd, Tambon Rop Wiang, Mueang Chiang Rai District, Chiang Rai 57000, Thailand",
    "province": "chiang rai",
    "open_hours": "Daily from 10 am to 2 pm and from 4.30 pm to 10 pm",
    "phone": "+66 (0)53 756 403",
    "parking": "",
    "website": "",
    "map_url": "",
    "image": "https://res.cloudinary.com/dvfwhgpen/image/upload/v1744134531/food/13.jpg"
  },
  {
    "foodId": "14",
    "name": "Barrab",
    "type": "localthai",
    "location": "897 60 Phaholyothin Rd, Wiang, Mueang Chiang Rai District, Chiang Rai 57000, Thailand",
    "province": "chiang rai",
    "open_hours": "Wednesday from 11 am to 4.30 pm, Thursday–Tuesday from 11 am to 8 pm",
    "phone": "+66 (0)94 812 6670",
    "parking": "",
    "website": "",
    "map_url": "",
    "image": "https://res.cloudinary.com/dvfwhgpen/image/upload/v1744134534/food/14.jpg"
  },
  {
    "foodId": "15",
    "name": "Ma-Prow Restaurant",
    "type": "localthai",
    "location": "48 3167 Mueang Prachuap Khiri Khan District, Prachuap Khiri Khan 77000, Thailand",
    "province": "prachuap khiri khan",
    "open_hours": "8:00 AM–11:00 PM",
    "phone": "+66 88 949 4459",
    "parking": "",
    "website": "",
    "map_url": "",
    "image": "https://res.cloudinary.com/dvfwhgpen/image/upload/v1744134536/food/15.jpg"
  },
  {
    "foodId": "16",
    "name": "Aunt Eum, crab noodles, stir-fried mantis shrimp with holy basil, made-to-order dishes, Ao Noi",
    "type": "localthai",
    "location": "122 7, Ao Noi, Mueang Prachuap Khan District, Thailand",
    "province": "prachuap khiri khan",
    "open_hours": " 7:00 AM–4:00 PM",
    "phone": "+66 32 611 872",
    "parking": "",
    "website": "",
    "map_url": "",
    "image": "https://res.cloudinary.com/dvfwhgpen/image/upload/v1744134538/food/16.jpg"
  },
  {
    "foodId": "17",
    "name": "Inthaifood Inthaifood",
    "type": "localthai",
    "location": "16 Phetkasem Road, Bang Muang Subdistrict, Takua Pa District, Phang Nga 82190",
    "province": "phang nga",
    "open_hours": " 9:00 AM–21:00 PM",
    "phone": "093 634 4141",
    "parking": "",
    "website": "https://www.facebook.com/pages/Inthaifood%20%E0%B8%AD%E0%B8%B4%E0%B8%99%E0%B9%84%E0%B8%97%E0%B8%A2%E0%B8%9F%E0%B8%B9%E0%B9%8A%E0%B8%94/264288570685268/",
    "map_url": "",
    "image": "https://res.cloudinary.com/dvfwhgpen/image/upload/v1744134540/food/17.jpg"
  },
  {
    "foodId": "18",
    "name": "J'Nong Recipe, a restaurant and souvenir shop in Phang Nga",
    "type": "localthai",
    "location": "12/12 Village No. 12, Tambon Kalai, Takua Thung District, Phang Nga 82130",
    "province": "phang nga",
    "open_hours": " 8:00 AM–6:00 PM",
    "phone": "095 423 2624",
    "parking": "",
    "website": "https://www.facebook.com/jnongrecipe",
    "map_url": "",
    "image": "https://res.cloudinary.com/dvfwhgpen/image/upload/v1744134542/food/18.jpg"
  },
  {
    "foodId": "19",
    "name": "Khao Kho Kitchen",
    "type": "localthai",
    "location": "Q29V+RQ6, Campson Subdistrict, Khao Kho District, Phetchabun 67280",
    "province": "phetchabun",
    "open_hours": " 8:00 AM–9:00 PM",
    "phone": "087 943 0015",
    "parking": "",
    "website": "https://www.khaokho.com/17233786/%E0%B8%84%E0%B8%A3%E0%B8%B1%E0%B8%A7%E0%B9%80%E0%B8%82%E0%B8%B2%E0%B8%84%E0%B9%89%E0%B8%AD",
    "map_url": "",
    "image": "https://res.cloudinary.com/dvfwhgpen/image/upload/v1744134543/food/19.jpg"
  },
  {
    "foodId": "20",
    "name": "New Kaiyang Buatong Branch 2 (New Kaiyang Buatong)",
    "type": "localthai",
    "location": "67, Sam Yaek Subdistrict, Wichian Buri District, Phetchabun 67130",
    "province": "phetchabun",
    "open_hours": " 7:00 AM–5:00 PM",
    "phone": " 099 324 6540",
    "parking": "",
    "website": "",
    "map_url": "",
    "image": "https://res.cloudinary.com/dvfwhgpen/image/upload/v1744134547/food/20.jpg"
  },
  {
    "foodId": "21",
    "name": "SuanPai Vegetarian Food",
    "type": "healthy,vegan",
    "location": " 2, Soi Lek Khao Mueak from the mouth of Soi 32, Ari 1 Alley, Phaya Thai Subdistrict, Phaya Thai District, Bangkok 10400",
    "province": "bangkok",
    "open_hours": " 7:00 AM–7:00 PM",
    "phone": " 085 568 9810",
    "parking": "",
    "website": "",
    "map_url": "",
    "image": "https://res.cloudinary.com/dvfwhgpen/image/upload/v1744134548/food/21.jpg"
  },
  {
    "foodId": "22",
    "name": "PLANTIFUL on Sukhumvit 61",
    "type": "healthy,vegan",
    "location": "27 Sukhumvit Soi 61, Khlong Tan Nuea Subdistrict, Watthana",
    "province": "bangkok",
    "open_hours": " 8:00 AM–8:00 PM",
    "phone": " 091 715 5247",
    "parking": "",
    "website": "https://www.plantifulbkk.com/",
    "map_url": "",
    "image": "https://res.cloudinary.com/dvfwhgpen/image/upload/v1744134550/food/22.jpg"
  },
  {
    "foodId": "23",
    "name": "Go Fresh Fuel",
    "type": "healthy,vegan",
    "location": "10, 32 Soi Ta-Ead, Chalong Subdistrict, Phuket, Phuket 83130",
    "province": "phuket",
    "open_hours": " 10:00 AM–8:30 PM",
    "phone": "094 279 1725",
    "parking": "",
    "website": "https://www.plantifulbkk.com/",
    "map_url": "",
    "image": "https://res.cloudinary.com/dvfwhgpen/image/upload/v1744134555/food/23.jpg"
  },
  {
    "foodId": "24",
    "name": "EatWise Vegan Cafe Phuket | Vegetarian | Healing Food | Gluten free Cafe Phuket",
    "type": "healthy,vegan",
    "location": " 3/31 Thalang District, Phuket 83110",
    "province": "phuket",
    "open_hours": " 10:00 AM–17:45 PM",
    "phone": "092 405 7218",
    "parking": "",
    "website": "",
    "map_url": "",
    "image": "https://res.cloudinary.com/dvfwhgpen/image/upload/v1744134557/food/24.jpg"
  },
  {
    "foodId": "25",
    "name": "Healthy Junk",
    "type": "healthy,vegan",
    "location": "5, 7 Nimmanhaemin Road, Suthep Subdistrict, Mueang Chiang Mai District, Chiang Mai 50200",
    "province": "chiang mai",
    "open_hours": " 08.00 AM–19:30 PM",
    "phone": "063 986 1863",
    "parking": "",
    "website": "https://linktr.ee/healthy_junk",
    "map_url": "",
    "image": "https://res.cloudinary.com/dvfwhgpen/image/upload/v1744134558/food/25.jpg"
  },
  {
    "foodId": "26",
    "name": "Pure Vegan Heaven Chiangmai Old Town",
    "type": "healthy,vegan",
    "location": "103 Ratchadamnoen Soi 8, Sriphum Subdistrict, Mueang Chiang Mai District, Chiang Mai 50200",
    "province": "chiang mai",
    "open_hours": " 08.30 AM–18:00 PM",
    "phone": "062 379 0531",
    "parking": "",
    "website": "https://pureveganheaven.net/",
    "map_url": "",
    "image": "https://res.cloudinary.com/dvfwhgpen/image/upload/v1744134559/food/26.jpg"
  },
  {
    "foodId": "27",
    "name": "BUZZ Organic Food & Drink",
    "type": "healthy,vegan",
    "location": "376, 3 Ao Nang Subdistrict, Muang, Krabi 81180",
    "province": "krabi",
    "open_hours": " 09.00 AM–16:00 PM",
    "phone": " 081 870 2317",
    "parking": "",
    "website": "https://www.facebook.com/buzzaonang",
    "map_url": "",
    "image": "https://res.cloudinary.com/dvfwhgpen/image/upload/v1744134560/food/27.jpg"
  },
  {
    "foodId": "28",
    "name": "Jai Jagannath",
    "type": "healthy,vegan",
    "location": "459, 6 Ao Nang Subdistrict, Mueang Krabi District, Krabi 81180",
    "province": "krabi",
    "open_hours": " 11.00 AM-22.00 PM",
    "phone": " 084 696 8013",
    "parking": "",
    "website": "",
    "map_url": "",
    "image": "https://res.cloudinary.com/dvfwhgpen/image/upload/v1744134561/food/28.jpg"
  },
  {
    "foodId": "29",
    "name": "JVgan Healthy Food - Si Racha",
    "type": "healthy,vegan",
    "location": "69/7-8 Surasak Road 1, Sriracha Subdistrict, Sriracha District, Chonburi 20110",
    "province": "chonburi",
    "open_hours": " 08.00 AM-17.30 PM",
    "phone": "085 535 9266",
    "parking": "",
    "website": "",
    "map_url": "",
    "image": "https://res.cloudinary.com/dvfwhgpen/image/upload/v1744134563/food/29.jpg"
  },
  {
    "foodId": "30",
    "name": "Plants Corner Chonburi Plants Corner Chonburi (VEGAN Chonburi)",
    "type": "healthy,vegan",
    "location": "Plants Corner Chonburi 40/155 M.1 28 Soi Naratmontasewi K, Sa Med Subdistrict, Mueang Chonburi District, Chonburi 20000",
    "province": "chonburi",
    "open_hours": " 12.00 AM-18.00 PM",
    "phone": "064 841 9222",
    "parking": "",
    "website": "https://www.facebook.com/plantscornerchonburi?mibextid=ZbWKwL",
    "map_url": "",
    "image": "https://res.cloudinary.com/dvfwhgpen/image/upload/v1744134573/food/30.jpg"
  },
  {
    "foodId": "31",
    "name": "Earthzone Restaurant /Thai Vetgetalian& Vegan &Steak/Thai food since 2002",
    "type": "healthy,vegan",
    "location": "227/61 6/1 Chok Rat Road, Mueang Surat Thani District, Surat Thani 84000",
    "province": "surat thani",
    "open_hours": " 7.00 AM-13.00 PM and 16.00 PM-23.30 PM",
    "phone": "082 545 2693",
    "parking": "",
    "website": "",
    "map_url": "",
    "image": "https://res.cloudinary.com/dvfwhgpen/image/upload/v1744134574/food/31.jpg"
  },
  {
    "foodId": "32",
    "name": "EATS Healthy Meals",
    "type": "healthy,vegan",
    "location": "136 74 Lamai Beach Road, Maret Subdistrict, Koh Samui District, Surat Thani 84310",
    "province": "surat thani",
    "open_hours": " 8.00 AM-16.00 PM",
    "phone": "088 657 1424",
    "parking": "",
    "website": "https://www.lamaifitnessretreat.com/",
    "map_url": "",
    "image": "https://res.cloudinary.com/dvfwhgpen/image/upload/v1744134575/food/32.jpg"
  },
  {
    "foodId": "33",
    "name": "The Hungry Nest",
    "type": "healthy,vegan",
    "location": "1025 Wiang 13, Chet Yot Road, Wiang Subdistrict, Mueang Chiang Rai 57000",
    "province": "chiang rai",
    "open_hours": " 8.00 AM-17.00 PM",
    "phone": "097 969 2875",
    "parking": "",
    "website": "",
    "map_url": "",
    "image": "https://res.cloudinary.com/dvfwhgpen/image/upload/v1744134576/food/33.jpg"
  },
  {
    "foodId": "34",
    "name": "Kunda Vegan Vegetarian Burger Cafe Chiang Rai",
    "type": "healthy,vegan",
    "location": "372 Trirat Road, Wiang Subdistrict, Mueang Chiang Rai District, Chiang Rai 57000",
    "province": "chiang rai",
    "open_hours": " 12.00 AM-19.30 PM",
    "phone": "082 886 6301",
    "parking": "",
    "website": "",
    "map_url": "",
    "image": "https://res.cloudinary.com/dvfwhgpen/image/upload/v1744134579/food/34.jpg"
  },
  {
    "foodId": "35",
    "name": "Suan Krua Restaurant, vegetarian food",
    "type": "healthy,vegan",
    "location": "7 Soi Tam Pramuk, Sueksuk Road, Mueang, Prachuap Khiri Khan 77000",
    "province": "prachuap khiri khan",
    "open_hours": " 06.30 AM-14.30 PM",
    "phone": "062 462 9454",
    "parking": "",
    "website": "https://www.facebook.com/SuanKure.Vegetarian",
    "map_url": "",
    "image": "https://res.cloudinary.com/dvfwhgpen/image/upload/v1744134580/food/35.jpg"
  },
  {
    "foodId": "36",
    "name": "Green Dining Vegan and Vegetarian",
    "type": "healthy,vegan",
    "location": " Next to Pae Mai Market, Soi Kiang Namthi Village, Hua Hin Subdistrict, Hua Hin District, Prachuap Khiri Khan 77110",
    "province": "prachuap khiri khan",
    "open_hours": " 10.00 AM-18.00 PM (Fri-Mon Closed)",
    "phone": "080 774 5673",
    "parking": "",
    "website": "",
    "map_url": "",
    "image": "https://res.cloudinary.com/dvfwhgpen/image/upload/v1744134582/food/36.png"
  },
  {
    "foodId": "37",
    "name": "Beyond the Root Vegan Food",
    "type": "healthy,vegan",
    "location": "13, 31 Phetkasem Road, Khukkak Subdistrict, Takua Pa District, Phang Nga 82220",
    "province": "phangnga",
    "open_hours": " 11.00 AM-22.00 PM (Mon Closed)",
    "phone": "083 248 6216",
    "parking": "",
    "website": "",
    "map_url": "",
    "image": "https://res.cloudinary.com/dvfwhgpen/image/upload/v1744134583/food/37.jpg"
  },
  {
    "foodId": "38",
    "name": "Monday Thai Restaurant",
    "type": "healthy,vegan",
    "location": "48 1 Thepkrasattri Rd., Talat Yai Subdistrict, Mueang Phuket District, Phuket 83000",
    "province": "phangnga",
    "open_hours": " 10.00 AM-22.00 PM",
    "phone": " 076 355 909",
    "parking": "",
    "website": "https://www.facebook.com/OneChunPhuket?gad_source=1&gclid=Cj0KCAiAw5W-BhAhEi0Apv4goENi1_Ca5lu6amZO1CNdgrWHuiTP3RBl5txUvrwbpOP6ac7Tr80YrAQaAnq0EALw_wcB",
    "map_url": "",
    "image": "https://res.cloudinary.com/dvfwhgpen/image/upload/v1744134585/food/38.jpg"
  },
  {
    "foodId": "39",
    "name": "Khun Nut's Healthy Food Kitchen",
    "type": "healthy,vegan",
    "location": "37-39 Fountain Roundabout, Soi Suksa Charoen Road, Mueang, Phetchabun 67000",
    "province": "phetchabun",
    "open_hours": " 06.00 AM-9.30 PM (Sunday Closed)",
    "phone": "065 649 5564",
    "parking": "",
    "website": "",
    "map_url": "",
    "image": "https://res.cloudinary.com/dvfwhgpen/image/upload/v1744134586/food/39.jpg"
  },
  {
    "foodId": "40",
    "name": "GreenField Farm&Bistro",
    "type": "healthy,vegan",
    "location": "184, Ban Tok Subdistrict, Mueang Phetchabun District, Phetchabun 67000",
    "province": "phetchabun",
    "open_hours": " 10.00 AM-9.30 PM",
    "phone": "099 595 9529",
    "parking": "",
    "website": "",
    "map_url": "",
    "image": "https://res.cloudinary.com/dvfwhgpen/image/upload/v1744134590/food/40.jpg"
  },
  {
    "foodId": "41",
    "name": "Bourbon Street Restaurant & Oyster Bar, Boutique Hotel",
    "type": "western",
    "location": "184, Ban Tok Subdistrict, Mueang Phetchabun District, Phetchabun 67000",
    "province": "bangkok",
    "open_hours": " 7.00 AM-0.00 AM",
    "phone": "02 381 6801",
    "parking": "",
    "website": "https://bourbonstbkk.com/",
    "map_url": "",
    "image": "https://res.cloudinary.com/dvfwhgpen/image/upload/v1744134591/food/41.jpg"
  },
  {
    "foodId": "42",
    "name": "D'ARK",
    "type": "western",
    "location": "693 695 Sukhumvit Road, Khlong Tan Nuea Subdistrict, Watthana District, Bangkok 10110",
    "province": "bangkok",
    "open_hours": " 9.00 AM-22.00 PM",
    "phone": "02 003 6013",
    "parking": "",
    "website": "https://www.darkoffee.com/",
    "map_url": "",
    "image": "https://res.cloudinary.com/dvfwhgpen/image/upload/v1744134592/food/42.jpg"
  },
  {
    "foodId": "43",
    "name": "Fanboys Cafe & Restaurant",
    "type": "western",
    "location": "205 23 Nai Nai Road, Patong Subdistrict, Kathu District, Phuket 83150",
    "province": "phuket",
    "open_hours": " 9.00 AM-20.00 PM (Monday Closed)",
    "phone": "080 810 9133",
    "parking": "",
    "website": "",
    "map_url": "",
    "image": "https://res.cloudinary.com/dvfwhgpen/image/upload/v1744134594/food/43.jpg"
  },
  {
    "foodId": "44",
    "name": "Surf & Turf by Soul Kitchen",
    "type": "western",
    "location": "115 Phang Nga Rd., Talat Yai Subdistrict, Mueang Phuket District, Phuket 83000",
    "province": "phuket",
    "open_hours": " 6.00 PM-10.00 PM (Sunday - Monday Closed)",
    "phone": "097 217 7434",
    "parking": "",
    "website": "",
    "map_url": "",
    "image": "https://res.cloudinary.com/dvfwhgpen/image/upload/v1744134595/food/44.jpg"
  },
  {
    "foodId": "45",
    "name": "The Duke's Ping River",
    "type": "western",
    "location": "49, 4-5 Chiang Mai-Lamphun Rd., Chang Moi Subdistrict, Mueang Chiang Mai District, Chiang Mai 50000",
    "province": "chiang mai",
    "open_hours": " 10.00 AM-22.00 PM",
    "phone": "053 249 231",
    "parking": "",
    "website": "https://wherestheduke.com/home/",
    "map_url": "",
    "image": "https://res.cloudinary.com/dvfwhgpen/image/upload/v1744134596/food/45.jpg"
  },
  {
    "foodId": "46",
    "name": "Wild Grill",
    "type": "western",
    "location": "Suthep Subdistrict, 25/3 Sanambin Road, Mueang Chiang Mai District, Chiang Mai 50200",
    "province": "chiang mai",
    "open_hours": " 10.00 AM-14.00 PM && 16.30PM-22.00PM",
    "phone": "080 492 4456",
    "parking": "",
    "website": "",
    "map_url": "",
    "image": "https://res.cloudinary.com/dvfwhgpen/image/upload/v1744134597/food/46.jpg"
  },
  {
    "foodId": "47",
    "name": "Prime Burger Ao Nang",
    "type": "western",
    "location": "667/7 Village No. 2, Ao Nang Subdistrict, Ao Nang, Mueang Krabi District, Krabi 81180",
    "province": "krabi",
    "open_hours": " 11.00 AM-1.00 AM",
    "phone": "061 902 4803",
    "parking": "",
    "website": "",
    "map_url": "",
    "image": "https://res.cloudinary.com/dvfwhgpen/image/upload/v1744134600/food/47.jpg"
  },
  {
    "foodId": "48",
    "name": "Diver's Inn Steak House",
    "type": "western",
    "location": "27 / 9 Moo 2 Ao Nang, Opposite Siam Commercial Bank 8.033223187168053, 98.8272151171375, Ao Nang, Krabi 81180",
    "province": "krabi",
    "open_hours": " 11.00 AM-23.00 PM",
    "phone": "075 637 297",
    "parking": "",
    "website": "https://www.krabi-divers-inn.com/",
    "map_url": "",
    "image": "https://res.cloudinary.com/dvfwhgpen/image/upload/v1744134601/food/48.jpg"
  },
  {
    "foodId": "49",
    "name": "Sämis International Restaurant",
    "type": "western",
    "location": "Pattaya City, Bang Lamung District, Chonburi 20150",
    "province": "chon buri",
    "open_hours": " 11.30 AM-22.30 PM",
    "phone": "088 522 7318",
    "parking": "",
    "website": "",
    "map_url": "",
    "image": "https://res.cloudinary.com/dvfwhgpen/image/upload/v1744134602/food/49.jpg"
  },
  {
    "foodId": "50",
    "name": "T55 New York Grill",
    "type": "western",
    "location": " 55 Na Sukhumvit Rd., Pattaya City, Sattahip District, Chonburi 20250",
    "province": "chon buri",
    "open_hours": " 18.00 PM-23.00 PM",
    "phone": "033 078 888",
    "parking": "",
    "website": "https://movenpick.accor.com/en/asia/thailand/pattaya/moevenpick-siam-hotel-na-jomtien-pattaya/restaurants/t55newyorkgrillroom.html?utm_source=google+Maps&utm_medium=seo+maps&utm_content=restaurant-B4J6-t55_new_york_grill_room&utm_campaign=seo+maps",
    "map_url": "",
    "image": "https://res.cloudinary.com/dvfwhgpen/image/upload/v1744134606/food/50.jpg"
  },
  {
    "foodId": "51",
    "name": "CHARNEEF - Burgers.HALAL Suratthani",
    "type": "western",
    "location": "Rimnam Market, Talat Subdistrict, Mueang District, Surat Thani 84000",
    "province": "surat thani",
    "open_hours": " 18.00 PM-22.30 PM",
    "phone": "062 619 8263",
    "parking": "",
    "website": "",
    "map_url": "",
    "image": "https://res.cloudinary.com/dvfwhgpen/image/upload/v1744134608/food/51.jpg"
  },
  {
    "foodId": "52",
    "name": "Earthzone Restaurant /Thai Vetgetalian& Vegan &Steak/Thai food since 2002",
    "type": "western",
    "location": "227/61 6/1 Chok Rat Road, Mueang Surat Thani District, Surat Thani 84000",
    "province": "surat thani",
    "open_hours": " 07.00 AM-13.00 PM && 16.00 PM-23.30 PM",
    "phone": "082 545 2693",
    "parking": "",
    "website": "",
    "map_url": "",
    "image": "https://res.cloudinary.com/dvfwhgpen/image/upload/v1744134609/food/52.jpg"
  },
  {
    "foodId": "53",
    "name": "Ribs & Co.",
    "type": "western",
    "location": "590 2 Phahonyothin Road, Rob Wiang Subdistrict, Mueang Chiang Rai District, Chiang Rai 57000",
    "province": "chiang rai",
    "open_hours": " 11.00 AM-22.00 PM",
    "phone": "052 059 956",
    "parking": "",
    "website": "",
    "map_url": "",
    "image": "https://res.cloudinary.com/dvfwhgpen/image/upload/v1744134610/food/53.jpg"
  },
  {
    "foodId": "54",
    "name": "Varee Fine Casual Dining",
    "type": "western",
    "location": "286 1, Muang Chiang Rai District, Chiang Rai 57100",
    "province": "chiang rai",
    "open_hours": " 06.00 AM-22.00 PM",
    "phone": "084 505 7000",
    "parking": "",
    "website": "https://www.vareechiangrai.com/",
    "map_url": "",
    "image": "https://res.cloudinary.com/dvfwhgpen/image/upload/v1744134611/food/54.jpg"
  },
  {
    "foodId": "55",
    "name": "Iron Pan",
    "type": "western",
    "location": "400, 17 Yothathikan Road, Pak Nam Pran Subdistrict, Pran Buri District, Prachuap Khiri Khan 77220",
    "province": "prachuap khiri khan",
    "open_hours": " 11.00 AM-21.00 PM ( Tue-Wed Closed)",
    "phone": "063 421 8591",
    "parking": "",
    "website": "",
    "map_url": "",
    "image": "https://res.cloudinary.com/dvfwhgpen/image/upload/v1744134612/food/55.jpg"
  },
  {
    "foodId": "56",
    "name": "Pizzadore",
    "type": "western",
    "location": "13 104 Soi Ao Hua Don 3, Nong Kae Subdistrict, Hua Hin District, Prachuap Khiri Khan 77110",
    "province": "prachuap khiri khan",
    "open_hours": " 13.00 AM-21.00 PM",
    "phone": "091 812 1930",
    "parking": "",
    "website": "",
    "map_url": "",
    "image": "https://res.cloudinary.com/dvfwhgpen/image/upload/v1744134614/food/56.jpg"
  },
  {
    "foodId": "57",
    "name": "The Boozer-The Boozer",
    "type": "western",
    "location": "41, 8 Lam Kaen Subdistrict, Thai Mueang District, Phang Nga 82210",
    "province": "phang nga",
    "open_hours": " 06.00 PM-00.00 AM",
    "phone": "084 062 0633",
    "parking": "",
    "website": "",
    "map_url": "",
    "image": "https://res.cloudinary.com/dvfwhgpen/image/upload/v1744134616/food/57.jpg"
  },
  {
    "foodId": "58",
    "name": "New Jumbo",
    "type": "western",
    "location": "19 17 M.1 Khukkak Subdistrict, Takua Pa District, Phang Nga 82190",
    "province": "phang nga",
    "open_hours": " 11.00 AM-22.00 PM (Wed - Closed)",
    "phone": " 098 021 5402",
    "parking": "",
    "website": "",
    "map_url": "",
    "image": "https://res.cloudinary.com/dvfwhgpen/image/upload/v1744134617/food/58.jpg"
  },
  {
    "foodId": "59",
    "name": "Livist Sky Rooftop Bar&Restaurant",
    "type": "western",
    "location": "37 20 Soi Narai Phatthana, Nai Mueang Subdistrict, Mueang Phetchabun District, Phetchabun 67000",
    "province": "phetchabun",
    "open_hours": "Open 24 hours",
    "phone": "02 114 7605",
    "parking": "",
    "website": "",
    "map_url": "",
    "image": "https://res.cloudinary.com/dvfwhgpen/image/upload/v1744134618/food/59.jpg"
  },
  {
    "foodId": "60",
    "name": "Refintomu",
    "type": "western",
    "location": "C4V5+2CM, Pa Lao Subdistrict, Mueang Phetchabun District, Phetchabun 67000",
    "province": "phetchabun",
    "open_hours": "10.00 AM-19.00PM",
    "phone": "094 428 2524",
    "parking": "",
    "website": "",
    "map_url": "",
    "image": "https://res.cloudinary.com/dvfwhgpen/image/upload/v1744134621/food/60.jpg"
  },
  {
    "foodId": "61",
    "name": "Sweet Addict",
    "type": "sweet",
    "location": " 236 16-17 Sathu Pradit Rd., Bang Phong Phang Subdistrict, Yan Nawa District, Bangkok 10120",
    "province": "bangkok",
    "open_hours": "14.00 PM-00.00AM",
    "phone": "094 373 8977",
    "parking": "",
    "website": "https://www.wongnai.com/restaurants/173895vH-sweet-addict",
    "map_url": "",
    "image": "https://res.cloudinary.com/dvfwhgpen/image/upload/v1744134622/food/61.jpg"
  },
  {
    "foodId": "62",
    "name": "Meg Mee Mango Tha Tien",
    "type": "sweet",
    "location": "67 Maharat Road, Phra Borom Maha Ratchawang Subdistrict, Phra Nakhon District, Bangkok 10200",
    "province": "bangkok",
    "open_hours": "10.30 AM-20.30AM",
    "phone": "02 622 0899",
    "parking": "",
    "website": "https://www.facebook.com/makememango/",
    "map_url": "",
    "image": "https://res.cloudinary.com/dvfwhgpen/image/upload/v1744134623/food/62.jpg"
  },
  {
    "foodId": "63",
    "name": "Homemade Desserts Phuket by Anastasia Mayer",
    "type": "sweet",
    "location": "408 Patak Road, Karon Subdistrict, Mueang District, Phuket 83100",
    "province": "phuket",
    "open_hours": "09.00 AM-18.00AM",
    "phone": "090 172 2981",
    "parking": "",
    "website": "https://www.instagram.com/homemade.desserts.phuket/?igsh=bDF4bTUyaWxrMDY1#",
    "map_url": "",
    "image": "https://res.cloudinary.com/dvfwhgpen/image/upload/v1744134625/food/63.jpg"
  },
  {
    "foodId": "64",
    "name": "PREM - Thai Dessert Cafe",
    "type": "sweet",
    "location": "44 Krabi Rd., Talat Nuea Subdistrict, Mueang Phuket District, Phuket 83000",
    "province": "phuket",
    "open_hours": "10.00 AM-19.00PM",
    "phone": "081 895 9430",
    "parking": "",
    "website": "https://www.facebook.com/premdessertbar",
    "map_url": "",
    "image": "https://res.cloudinary.com/dvfwhgpen/image/upload/v1744134628/food/64.jpg"
  },
  {
    "foodId": "65",
    "name": "Chang Moi Dessert",
    "type": "sweet",
    "location": "169 Chang Moi Road, Chang Moi Subdistrict, Mueang Chiang Mai District, Chiang Mai 50300",
    "province": "chiang mai",
    "open_hours": "12.00 PM-01.00 AM",
    "phone": "062 619 5661",
    "parking": "",
    "website": "https://www.facebook.com/Thaidessertcnx/?mibextid=ZbWKwL",
    "map_url": "",
    "image": "https://res.cloudinary.com/dvfwhgpen/image/upload/v1744134629/food/65.jpg"
  },
  {
    "foodId": "66",
    "name": "Saruda Finest Pastry",
    "type": "sweet",
    "location": "No. 12 Nimmanhaemin Road, Soi 3, Suthep Subdistrict, Mueang District, Chiang Mai 50200",
    "province": "chiang mai",
    "open_hours": "10.00 AM-01.00 AM",
    "phone": "062 619 5661",
    "parking": "",
    "website": "https://www.facebook.com/Thaidessertcnx/?mibextid=ZbWKwL",
    "map_url": "",
    "image": "https://res.cloudinary.com/dvfwhgpen/image/upload/v1744134630/food/66.jpg"
  },
  {
    "foodId": "67",
    "name": "Thongyib Thongyod Brunch & Cafe",
    "type": "sweet",
    "location": " 79/45 Village No. 3, Ao Nang Landmark, Ao Nang Subdistrict, Mueang Krabi District, Krabi 81180",
    "province": "krabi",
    "open_hours": "09.00 AM-18.00 PM",
    "phone": "081 874 3161",
    "parking": "",
    "website": "https://www.facebook.com/aonangcafe/",
    "map_url": "",
    "image": "https://res.cloudinary.com/dvfwhgpen/image/upload/v1744134631/food/67.jpg"
  },
  {
    "foodId": "68",
    "name": "Selling snacks (KAINOM)",
    "type": "sweet",
    "location": "92 19 Luang Pho Rd., Pak Nam Subdistrict, Mueang Krabi 81000",
    "province": "krabi",
    "open_hours": "11.00 AM-22.00 PM",
    "phone": "091 499 4645",
    "parking": "",
    "website": "https://www.facebook.com/profile.php?id=61550351587665&mibextid=kFxxJD",
    "map_url": "",
    "image": "https://res.cloudinary.com/dvfwhgpen/image/upload/v1744134632/food/68.jpg"
  },
  {
    "foodId": "69",
    "name": "Busaba-Busaba homemade delight dessert",
    "type": "sweet",
    "location": " 88 Sukhumvit Road, Sriracha Subdistrict, Sriracha District, Chonburi 20110",
    "province": "chon buri",
    "open_hours": "10.00 AM-21.00 PM (Tue-closed)",
    "phone": "081 153 7456",
    "parking": "",
    "website": "https://www.facebook.com/busabadelight",
    "map_url": "",
    "image": "https://res.cloudinary.com/dvfwhgpen/image/upload/v1744134633/food/69.jpg"
  },
  {
    "foodId": "70",
    "name": "I SEA CREAM",
    "type": "sweet",
    "location": "108/16-17 Room 1, 1st Floor, Bangsaen Lower Road, Soi 12/1, Saensuk Subdistrict, Mueang Chonburi District, Chonburi 20130",
    "province": "chon buri",
    "open_hours": "10.00 AM-18.00 PM",
    "phone": "095 046 4151",
    "parking": "",
    "website": "https://www.facebook.com/iseacream/?_rdr",
    "map_url": "",
    "image": "https://res.cloudinary.com/dvfwhgpen/image/upload/v1744134636/food/70.jpg"
  },
  {
    "foodId": "71",
    "name": "Pandanus green",
    "type": "sweet",
    "location": "Market, Salajao Market, No. 1, Ton Pho Road, Muang, Surat Thani 84000",
    "province": "surat thani",
    "open_hours": "09.00 AM-20.30 PM",
    "phone": "",
    "parking": "",
    "website": "https://www.facebook.com/khiaobaitoey#",
    "map_url": "",
    "image": "https://res.cloudinary.com/dvfwhgpen/image/upload/v1744134637/food/71.jpg"
  },
  {
    "foodId": "72",
    "name": "Good Cafe Surat Thani",
    "type": "sweet",
    "location": " 21/9 Talat Muang Surat Thani 84000",
    "province": "surat thani",
    "open_hours": "07.00 AM-16.00 PM",
    "phone": "",
    "parking": "",
    "website": "https://www.facebook.com/goodcafesuratthani",
    "map_url": "",
    "image": "https://res.cloudinary.com/dvfwhgpen/image/upload/v1744134638/food/72.jpg"
  },
  {
    "foodId": "73",
    "name": "Fragrant Chiang Rai",
    "type": "sweet",
    "location": "229 23 Village No. 5, Klang Wiang Road, Rim Kok Subdistrict, Mueang Chiang Rai District, Chiang Rai 57100",
    "province": "chiang rai",
    "open_hours": "08.00 AM-18.00 PM",
    "phone": "",
    "parking": "",
    "website": "https://www.facebook.com/HomrunjuanChiangRai",
    "map_url": "",
    "image": "https://res.cloudinary.com/dvfwhgpen/image/upload/v1744134641/food/73.jpg"
  },
  {
    "foodId": "74",
    "name": "AING Patisserie",
    "type": "sweet",
    "location": "897 27, Chet Yot Road, Wiang Subdistrict, Mueang Chiang Rai District, Chiang Rai 57000",
    "province": "chiang rai",
    "open_hours": "08.30 AM-16.30 PM (Thursday - Closed)",
    "phone": "",
    "parking": "",
    "website": "https://www.facebook.com/AINGpatisserie?mibextid=ZbWKwL",
    "map_url": "",
    "image": "https://res.cloudinary.com/dvfwhgpen/image/upload/v1744134643/food/74.jpg"
  },
  {
    "foodId": "75",
    "name": "Mistletoe, Hua Hin custard",
    "type": "sweet",
    "location": "40, 11 Petchkasem Rd., Hua Hin Subdistrict, Hua Hin District, Prachuap Khiri Khan 77110",
    "province": "prachuap khiri khan",
    "open_hours": "14.00 PM-21.30 PM (Tuesday - Closed)",
    "phone": "093 388 8399",
    "parking": "",
    "website": "https://www.facebook.com/AINGpatisserie?mibextid=ZbWKwL",
    "map_url": "",
    "image": "https://res.cloudinary.com/dvfwhgpen/image/upload/v1744134644/food/75.jpg"
  },
  {
    "foodId": "76",
    "name": "Ma Maison Bakery & Café",
    "type": "sweet",
    "location": "201, 1 Salachip Road, Mueang Prachuap Khiri Khan District, Prachuap Khiri Khan 77000",
    "province": "prachuap khiri khan",
    "open_hours": "08.00 AM-16.00 PM (Wednesday - Closed)",
    "phone": "089 247 0090",
    "parking": "",
    "website": "https://www.facebook.com/mamaisonbakeryandcafe",
    "map_url": "",
    "image": "https://res.cloudinary.com/dvfwhgpen/image/upload/v1744134646/food/76.jpg"
  },
  {
    "foodId": "77",
    "name": "Sweet Dessert Cafe'",
    "type": "sweet",
    "location": "15/20 Phetkasem Road, Thap Put Subdistrict, Thap Put District, Phang Nga 82180",
    "province": "phang nga",
    "open_hours": "08.00 AM-16.00 PM (Wednesday - Closed)",
    "phone": ": 084 292 7848",
    "parking": "",
    "website": "https://www.facebook.com/profile.php?id=100063756302102#",
    "map_url": "",
    "image": "https://res.cloudinary.com/dvfwhgpen/image/upload/v1744134648/food/77.jpg"
  },
  {
    "foodId": "78",
    "name": "Garang Artisan Icecream Beach Cafe Bangsak Beach",
    "type": "sweet",
    "location": "7 2, Bang Muang Subdistrict, Takua Pa District, Phang Nga 82190",
    "province": "phang nga",
    "open_hours": "10.00 AM-19.00 PM",
    "phone": ": 063 271 2282",
    "parking": "",
    "website": "https://www.garangicecream.com/",
    "map_url": "",
    "image": "https://res.cloudinary.com/dvfwhgpen/image/upload/v1741106500/78_xtohbs.jpg"
  },
  {
    "foodId": "79",
    "name": "Ting Ting Curry Puffs",
    "type": "sweet",
    "location": "36, 8, Mueang Phatthana Subdistrict, Mueang Phetchabun District, Phetchabun 67000",
    "province": "phetchabun",
    "open_hours": "11.00 AM-20.00 PM (Saturday - Closed)",
    "phone": ":088 281 1998",
    "parking": "",
    "website": "https://www.facebook.com/tingting88888888#",
    "map_url": "",
    "image": "https://res.cloudinary.com/dvfwhgpen/image/upload/v1744134649/food/79.jpg"
  },
  {
    "foodId": "80",
    "name": "Meng Bakery & Coffee",
    "type": "sweet",
    "location": "9/2-5, Nai Mueang, Mueang Phetchabun District, Phetchabun 67000",
    "province": "phetchabun",
    "open_hours": "08.30 AM-19.00 PM",
    "phone": ":056 712 670",
    "parking": "",
    "website": "",
    "map_url": "",
    "image": "https://res.cloudinary.com/dvfwhgpen/image/upload/v1744134651/food/80.jpg"
  }
]